"","ID","Name","Latitude","Longitude","CapacityMW","GenerationMWhPerYear"
"1",1,"Lamar Plant",37.86495,-102.561775,6,10100.7392330446
"2",2,"Medicine Bow",41.834711111,-106.243022222,5.82,NA
"3",3,"Geneseo",41.451494,-90.148547,3,6431.01402060278
"4",4,"Osage",43.2925,-92.8406,1.5,4788.68421160671
"5",5,"Mountain Lake",43.9405,-94.9434,1.25,3508.99789663867
"6",6,"Willmar",45.158,-95.00745,4,6569.59114993618
"7",7,"Worthington",43.621333333,-95.678833333,5.4,14618.647573554
"8",8,"Kotzebue",66.893604,-162.595929,4.7,NA
"9",9,"Lincoln Turbines",44.610814286,-87.558078571,9.24,14556.9171558255
"10",10,"Adams Wind",40.920781562,-94.674754531,150.144,444617.250939626
"11",11,"Searsburg Wind Turbine",42.861763636,-72.963063636,6.05,11538.8393211893
"12",12,"Princeton Wind Farm",42.4789,-71.9,3,4610.2513993215
"13",13,"Solano Wind",38.1183,-121.8653,229.98,449551.865446724
"14",14,"Springview",42.825556,-93.776944,3,10270.8621176471
"15",15,"Moorhead Wind Turbine",46.89515,-96.7311,1.5,2325.11321254519
"16",16,"Glenmore Turbines",44.35575,-87.98395,0,NA
"17",17,"Wind Turbine",44.654805882,-87.641682353,11.22,19199.1486265362
"18",18,"Byron",43.65745,-88.4391,1.32,2676.51754794426
"19",19,"Buffalo Mountain",36.1208,-84.3387,2,NA
"20",20,"Nine Canyon",46.100647302,-119.11137127,95.9,231534.25
"21",21,"Ponnequin",40.8414,-104.8764,25.3,NA
"22",22,"Salt Valley Wind Plant",40.90375,-96.62485,1.32,2436.27247058824
"23",23,"Iowa Distributed Wind Generation Project",43.0349,-94.140833333,2.25,4924.36365592144
"24",24,"Chamberlain Wind Project",43.84855,-99.24785,2.6,3973.79152941177
"25",25,"Dinosaur Point",37.0478,-121.1708,17.325,NA
"26",26,"EUIPH Wind Farm",33.9447,-116.6222,25.4,NA
"27",27,"Tehachapi Wind Resource I",35.0606,-118.1061,8.7,NA
"28",28,"Cameron Ridge LLC",35.075,-118.3158,59.6,162866.452444007
"29",29,"Ridgetop Energy LLC",35.0697,-118.3167,29,NA
"30",30,"Karen Avenue Windfarm",33.92194,-116.56222,11.7,NA
"31",31,"Difwind Farms Ltd VII",37.7581,-121.5253,24,NA
"32",32,"Deer Island Treatment Plant",42.34645,-70.95685,0,NA
"33",33,"Altamont Midway Ltd",37.7392,-121.4322,10.9,NA
"34",34,"Wintec Energy Ltd",33.9131,-116.5631,7.52,NA
"35",35,"San Gorgonio Farms Wind Farm",33.926111,-116.615,31,NA
"36",36,"Windland",35.0522,-118.3581,16,NA
"37",37,"Altech III",33.9603,-116.5364,25.1,NA
"38",38,"Victory Garden (Tehachapi)",35.0686,-118.3833,17.6,NA
"39",39,"Painted Hills",33.9369,-116.6183,19,NA
"40",40,"Santa Clara (85C)",37.7366755,-121.6500825,0,NA
"41",41,"Mesa Wind Power Corp",33.9461,-116.6769,29.9,NA
"42",42,"Sky River LLC",35.2608,-118.2469,76.9,NA
"43",43,"Cabazon Wind Farm",33.914422642,-116.709811321,80.67,68819.1744127684
"44",44,"Edom Hills Project 1 LLC",33.8827875,-116.4637625,20,45600.7391989716
"45",45,"San Gorgonio Westwinds II LLC",33.934,-116.5781,43.4,NA
"46",46,"Altamont Pass Windplant",37.7341,-121.6516,332.5,NA
"47",47,"Oak Creek Energy Systems I",35.043889,-118.276388,34.5,NA
"48",48,"Altech",37.7392,-121.4322,10.5,NA
"49",49,"East Winds Project",34,-116.5206,4.2,NA
"50",50,"Mojave 16",35.05,-118.2572,30,NA
"51",51,"Mojave 17",35.05,-118.2572,25,NA
"52",52,"Mojave 18",35.05,-118.2564,30,NA
"53",53,"Tres Vaqueros Wind Farms LLC",33.9211,-116.5642,28.3,NA
"54",54,"Mojave 4",35.0506,-118.2572,29,NA
"55",55,"Mojave 3",35.05,-118.2572,23.5,NA
"56",56,"Mojave 5",35.05,-118.2572,22.5,NA
"57",57,"Victory Garden Phase IV LLC",35.3111,-118.4319,22,NA
"58",58,"Terra-Gen 251 Wind LLC",35.0853,-118.3547,18.4,NA
"59",59,"85 A",35.099909939,-118.334885091,14.85,14659.8774737305
"60",60,"85 B",35.101623023,-118.332782419,19.35,18922.5327030865
"61",61,"Helzel & Schwarzhoff 88 Wind Farm",35.0686,-118.3519,1.8,NA
"62",62,"Westwind Trust",33.9683,-116.5347,16,NA
"63",63,"Coram Energy LLC (ECT)",35.0583,-118.3417,7.5,NA
"64",64,"Coram Energy LLC",35.06155,-118.3234,0,NA
"65",65,"CTV Power Purchase Contract Trust",35.0583,-118.3083,4.6,NA
"66",66,"EDF Renewable Windfarm V Inc",38.1167,-121.8333,60,NA
"67",67,"San Gorgonio Windplant WPP1993",33.9228,-116.5422,49.5,182787.975668733
"68",68,"TPC Windfarms LLC",35.05,-118.2572,28.7,NA
"69",69,"Swanmill Windfarm I",33.9211,-116.5642,18.7,NA
"70",70,"Difwind Farms Ltd I",33.9603,-116.5364,7.3,NA
"71",71,"Difwind Farms Ltd II",33.9603,-116.5364,5.5,NA
"72",72,"Difwind Farms Ltd V",33.9211,-116.5642,11.7,NA
"73",73,"Difwind Farms Ltd VI",35.0506,-118.1714,27.1,NA
"74",74,"Difwind Farms Ltd VIII",35.0506,-118.1714,15,NA
"75",75,"Coram Tehachapi",35.0663,-118.339444,6.9,NA
"76",76,"Storm Lake 1",42.710906513,-95.323855066,114,247966.522996868
"77",77,"Buffalo Ridge Windplant WPP 1993",44.220257534,-96.238850685,0,NA
"78",78,"Tehachapi Wind Resource II",35.1061,-118.3114,21.9,NA
"79",79,"Ridgetop",35.0697,-118.3167,46.789,NA
"80",80,"West Texas Windplant",31.7333,-104.75,30,NA
"81",81,"Big Spring Wind Power Facility",32.2853,-101.4494,34.32,62977.9223936947
"82",82,"Vansycle",45.935076316,-118.649631579,25.08,67465.5
"83",83,"Ponnequin Phase 1",39.9958,-104.8278,5.2,NA
"84",84,"Lake Benton I",44.326451748,-96.378804895,0,NA
"85",85,"Lake Benton II",44.135365942,-96.138189855,103.5,280395.396361517
"86",86,"Storm Lake II",42.518698131,-95.313833645,160.5,182810.428339318
"87",87,"Woodstock Windfarm",43.986170588,-96.077852941,0,NA
"88",88,"Lakota Ridge LLC",44.4001,-96.434306667,11.25,27618.3392501279
"89",89,"Shaokatan Hills LLC",44.421711111,-96.434694444,11.88,33053.3870195003
"90",90,"West Texas Wind Energy LLC",31.094786,-102.129836,80.25,156230.486011863
"91",91,"Wethersfield Wind Farm",42.68279,-78.24534,6.6,13094.1479333333
"92",92,"Green Mountain Wind Farm",39.8508625,-79.0673125,10.4,7572.65316556291
"93",93,"Green Power I",33.9014,-116.7167,16.5,NA
"94",94,"Delaware Mountain Windfarm",31.6414,-104.7519,23.3,26774.4148026729
"95",95,"FPL Energy Vansycle LLC (WA)",46.017988876,-118.8185897,176.22,357453.75
"96",96,"Tsar Nicholas LLC",44.42,-96.4347,1.9,NA
"97",97,"Sun River LLC",44.4289,-96.4358,1.9,NA
"98",98,"Julia Hills LLC",44.4231,-96.4458,1.9,NA
"99",99,"Jessica Mills LLC",44.4278,-96.43,1.9,NA
"100",100,"Jack River LLC",44.4233,-96.4411,1.9,NA
"101",101,"North Shaokatan",44.4131,-96.4325,1.9,5445.34714527821
"102",102,"Winters Spawn LLC",44.2081,-96.1989,1.9,NA
"103",103,"Twin Lake Hills LLC",44.2258,-96.2789,1.9,NA
"104",104,"Spartan Hills LLC",44.2358,-96.2383,1.9,NA
"105",105,"Soliloquoy Ridge LLC",44.2364,-96.2331,1.9,NA
"106",106,"Ruthton Ridge LLC",44.2128,-96.2131,1.9,NA
"107",107,"Hope Creek LLC",44.2275,-96.2192,1.9,NA
"108",108,"Hadley Ridge LLC",44.2253,-96.235,1.9,NA
"109",109,"Florence Hills LLC",44.228533333,-96.223833333,0,NA
"110",110,"Agassiz Beach LLC",47.0033,-96.4328,1.98,5261.53702975396
"111",111,"Hueco Mountain Wind Ranch",31.7155,-105.99015,1.32,1072.65632432465
"112",112,"Llano Estacado Wind Ranch",35.4668425,-101.230025,80,226390.909090909
"113",113,"King Mountain Wind Ranch 1",31.243873709,-102.213512207,277.9,559879.669518594
"114",114,"Foote Creek I",41.632131884,-106.200881159,41.4,113202.146692071
"115",115,"Foote Creek II",41.6575,-106.189233333,1.8,5437.72726451188
"116",116,"Foote Creek III",41.664427273,-106.184790909,24.75,69078.7678878872
"117",117,"Foote Creek IV",41.675460714,-106.179246429,16.8,54499.3759840941
"118",118,"Mountain View I&2",33.9211,-116.5642,66.6,207314.539438309
"119",119,"Gray County Wind Energy",37.610253529,-100.38286,112.2,232587.882352941
"120",120,"Condon Windpower LLC",45.273716867,-120.271166265,49.8,92456
"121",121,"Rock River I LLC",41.718388,-106.108472,50,133249.391049267
"122",122,"Ridge Crest Wind Partners",40.944109091,-103.160942424,29.7,71898.3227695659
"123",123,"Montfort Wind Energy Center",42.960795,-90.38323,30,55823.2145286541
"124",124,"NWP Indian Mesa Wind Farm",30.9273,-102.1468,82.5,200555.115131305
"125",125,"Madison Windpower LLC",42.894928571,-75.452042857,11.55,19715.0763591871
"126",126,"Wilmont Hills LLC",43.7527,-95.8443,1.5,5502.57810753191
"127",127,"Fenner Wind",42.989385,-75.76149,30,64108.5143188787
"128",128,"Woodward Mountain II",30.924521368,-102.46794188,77.22,166224.838324173
"129",129,"Woodward Mountain I",30.9615592,-102.407188,82.5,175941.783846876
"130",130,"FPL E Somerset Windpower LLC",39.979883333,-79.011566667,9,18155.7071707317
"131",131,"Top of Iowa Windfarm",43.364883146,-93.411429213,80.1,173096.425531915
"132",132,"Mill Run Windpower",39.92138,-79.39032,15,33357.5555555556
"133",133,"Kas Brothers Windfarm",44.0123,-96.11395,1.5,3893.63338062102
"134",134,"Hawkeye Power Partners LLC",43.064147273,-93.451787273,41.25,90149.1153232333
"135",135,"Klondike Wind Power",45.5647125,-120.55045625,24,52229.9999999997
"136",136,"Bay Windpower I",45.7618,-84.73995,1.8,2359.2987234046
"137",137,"Trent Wind Farm LP",32.434373,-100.219188,150,410787.632298497
"138",138,"Champepaden Wind Power",43.9007,-95.951033333,1.98,6027.45608532332
"139",139,"Moulton Wind Power",43.9202,-95.955666667,1.98,6201.82823025779
"140",140,"Mountaineer Wind Energy Center",39.185268182,-79.535438636,66,150549.146341463
"141",141,"FPL Energy Vansycle LLC (OR)",45.985713369,-118.787366738,123.42,266797.75
"142",142,"Desert Sky",30.926698131,-102.119849533,160.5,440703.372874345
"143",143,"Minot Wind Project",48.2117,-101.2769,7.1,13532.7110861999
"144",144,"Waymart Wind",41.596865116,-75.43674186,64.5,153522.490566038
"145",145,"Minwind",43.555125,-96.30885,3.8,9778.67827939174
"146",146,"Hancock County Wind Energy Center",43.011947973,-93.68244527,97.68,250528.839818529
"147",147,"Cabazon Wind Partners",33.911645161,-116.7329,40.92,118239.274538333
"148",148,"Whitewater Hill Wind Partners",33.926129268,-116.620995122,61.5,174289.108496363
"149",149,"Meyersdale Windpower",39.789365,-79.00326,30,79838.3694267515
"150",150,"G McNeilus Wind Farm Dodge Center",43.9858,-92.8603,42.45,100318.659081248
"151",151,"High Winds LLC",38.130896667,-121.802863333,162,371728.147657706
"152",152,"Blue Canyon Windpower",34.853191111,-98.574077778,74.25,252062.117647059
"153",153,"South Dakota Wind Energy Cente",44.365674074,-99.460907407,40.5,133653.882352941
"154",154,"Wyoming Wind Energy Center",41.35754125,-110.78701625,144,338211.928690763
"155",155,"Oklahoma Wind Energy Center",36.585110294,-99.300761765,102,281453.454545455
"156",156,"New Mexico Wind Energy Center",34.635588971,-104.059931618,204,598813
"157",157,"FPL Energy North Dakota Wind I/II",46.321190244,-98.886270732,61.5,179564.193789353
"158",158,"Kimball",41.273442857,-103.695085714,10.5,21424.350273192
"159",159,"Brazos Wind Farm",32.945005,-101.200715,160,456836.704390347
"160",160,"Mountain View III",33.9103,-116.5453,22.44,75799.7240452165
"161",161,"Minwind 3-9",43.645757143,-96.389557143,11.55,31070.8428027068
"162",162,"Chanarambie Power Partners, LLC",44.010389474,-96.042142105,85.5,246429.085765159
"163",163,"Viking Wind Partners",43.9836125,-96.013975,12,38484.8080497912
"164",164,"Mendota Hills, LLC",41.724990476,-89.046374603,50.4,88529.9233032656
"165",165,"Ainsworth Wind",42.461111111,-99.914066667,59.4,187256
"166",166,"Flying Cloud Power Partners LLC",43.384824138,-95.297562069,43.5,143086.794649472
"167",167,"Colorado Green Holdings LLC",37.700662037,-102.636656481,162,428481.335414268
"168",168,"Moraine Wind LLC",44.066820588,-96.055814706,51,154797.652559211
"169",169,"Combine Hills I",45.939926829,-118.584402439,41,104491.75
"170",170,"TG Windfarm LLC",43.98885,-96.2215,0,NA
"171",171,"CG Windfarm LLC",43.993,-96.22105,0,NA
"172",172,"Bisson Windfarm LLC",43.9846,-96.22145,0,NA
"173",173,"Tofteland Windfarm LLC",43.98035,-96.22115,0,NA
"174",174,"Westridge Windfarm LLC",43.98665,-96.2156,1.9,5505.66943519144
"175",175,"Fey Windfarm LLC",44.03615,-96.0697,0,NA
"176",176,"Windcurrent Farms LLC",44.025,-96.07865,0,NA
"177",177,"K-Brink Windfarm LLC",44.0197,-96.1183,2,NA
"178",178,"DL Windy Acres LLC",43.6517,-95.37,2,NA
"179",179,"S&P Windfarm LLC",43.6517,-95.37,2,NA
"180",180,"Boeve Windfarm LLC",44.0495,-96.0933,0,NA
"181",181,"Brewster",43.6517,-95.3847,2,5748.80930784945
"182",182,"Sweetwater Wind  1 LLC",32.3614,-100.337136,37.5,118353.987515062
"183",183,"Sweetwater Wind 2 LLC",32.333508197,-100.373491803,91.5,267594.255227198
"184",184,"Patterson Pass",37.5,-121.5,21.9,NA
"185",185,"Aeroturbine",33.875,-116.625,4.7,NA
"186",186,"Allendorf",43.4,-95.6333,1.2,NA
"187",187,"L J Trust",43.4058,-95.6547,2,NA
"188",188,"NAE Shaokatan Power",44.3979,-96.41825,1.6,691.384615384615
"189",189,"Zachary Ridge LLC",43.4058,-95.6575,3.6,NA
"190",190,"Indian Mesa (Vestas)",36.4727,-101.3279,3,2127.10094117647
"191",191,"Bowling Green Wind",41.3795,-83.738625,7.2,13789.6666666667
"192",192,"Buffalo Gap Wind Farm",32.308226866,-100.119753731,120.6,363677.014780319
"193",193,"Intrepid",42.5539,-95.3283,175.5,499477.078165987
"194",194,"Century",42.540584138,-93.660263448,200,527237.934815385
"195",195,"Hopkins Ridge Wind",46.4211,-117.8331,156.6,408670.5
"196",196,"Callahan Divide Wind Energy Center",32.320802632,-100.005159211,114,371844.801169048
"197",197,"Diablo Wind LLC",37.763412903,-121.631809677,20.46,63672.070431618
"198",198,"Weatherford Wind Energy Center",35.509410204,-98.734602041,147,548762.322580645
"199",199,"Helzel & Schwarzhoff 86",35.0728,-118.3522,2.4,NA
"200",200,"ZCO",35.0909,-118.393975,0,NA
"201",201,"Maple Ridge Wind Farm",43.773038974,-75.582792308,321.75,728168.871506701
"202",202,"Horse Hollow Wind Energy Center",32.24964323,-100.148484561,735.5,2173716.92349342
"203",203,"Caprock Wind Farm",34.9790325,-103.3503425,80,313733.124052201
"204",204,"Kumeyaay Wind",32.717028,-116.338588,50,141645.909915284
"205",205,"Trimont Area Wind Farm",43.793625373,-94.853858209,100.5,328115.559466652
"206",206,"Crescent Ridge",41.242724242,-89.573669697,54.45,150148.404364371
"207",207,"Wind Park Bear Creek",41.237033333,-75.75195,24,58997.4460615385
"208",208,"Jersey-Atlantic Wind Farm",39.38194,-74.44834,7.5,17088
"209",209,"Wolverine Creek",43.384137209,-111.84325814,64.5,168086.718375267
"210",210,"Oasis Wind",35.061991667,-118.291876667,60,165007.672925566
"211",211,"Elk River Wind",37.579682,-96.551694,150,514388.4375
"212",212,"San Juan Mesa",33.955169167,-103.820899167,120,431524.242424243
"213",213,"Adams Wind Farm",43.5403,-92.7289,23.4,61221.1220199848
"214",214,"Fossil Gulch",42.858985714,-114.9496,10.5,24490.7700698845
"215",215,"Sweetwater Wind 3 LLC",32.306843333,-100.43687,135,404474.589307162
"216",216,"Spring Canyon",40.96306,-103.0199625,60,193556.895256566
"217",217,"Wild Horse",46.9772,-120.2092,272.6,640798.032786885
"218",218,"Blue Canyon Windpower II",34.87544881,-98.640713095,151.2,522159.882352941
"219",219,"Aragonne Wind LLC",34.817696667,-105.057288889,90,250690.858596821
"220",220,"Sweetwater Wind 4 LLC",32.289266298,-100.50118232,240.8,683442.373295271
"221",221,"High Trail Wind Farm LLC",40.449459917,-88.694656417,198,568993.820869545
"222",222,"Cedar Ridge",43.717092683,-88.310914634,67.65,182736.336763174
"223",223,"Spearville",37.873745455,-99.744069697,148.5,456169.352941176
"224",224,"Whispering Willow Wind Farm - East",42.630371074,-93.228424793,199.65,574807.483200311
"225",225,"Wilton Wind I",47.122692121,-100.699566667,49.5,170533.101616079
"226",226,"Klondike Windpower II",45.582528,-120.581136,75,215873
"227",227,"Leaning Juniper",45.652468657,-120.209779104,100.5,203148
"228",228,"Big Horn Wind Project",45.882897744,-120.281857143,199.5,488858.5
"229",229,"Shiloh I Wind Project",38.147862,-121.852661,150,419278.101906733
"230",230,"Casselman Wind Power Project",39.859526087,-79.128408696,34.5,90986.9471559633
"231",231,"Cedar Creek Wind",40.884238321,-104.022274818,300.5,804335.09793372
"232",232,"Sweetwater Wind 5",32.231077143,-100.480268571,80.5,229736.452296087
"233",233,"Pike County Wind Power",39.6188,-90.8462,1.65,3505.04470590718
"234",234,"Judith Gap Wind Energy Center",46.570206667,-109.751137778,135,467546.912857365
"235",235,"Pakini Nui Wind Farm",18.971357143,-155.689614286,21,108705.652526694
"236",236,"Victory Wind Farm",42.133719697,-95.123095455,99,357190.589642287
"237",237,"Centennial Wind Farm",36.64435625,-99.6168825,120,311748.882352941
"238",238,"Northern Iowa Windpower II",43.3608,-93.2978,80,204069.532436517
"239",239,"Top of Iowa Windfarm III",43.3533,-93.304561111,29.7,81240.6366102346
"240",240,"Blue Sky Green Field Wind Project",43.886280682,-88.269840909,145.2,362712.249999999
"241",241,"FPL Energy Oliver Wind I LLC",47.167163636,-101.219995455,50.6,169298.757671395
"242",242,"Forest Creek Wind Farm LLC",32.039044444,-101.213081481,124.2,392951.329628149
"243",243,"Mesquite Wind Power LLC",32.609567,-99.502082,200,553452.962974345
"244",244,"Lempster Wind LLC",43.233833333,-72.145366667,24,68231.6520690571
"245",245,"Westex Windpower Facility",32.2358,-101.3581,6.6,NA
"246",246,"Agriwind LLC",41.300825,-89.619075,8.4,12156
"247",247,"Stahl Wind Energy",44.0256,-96.4304,0,NA
"248",248,"Carstensen Wind",44.0249,-96.4372,0,NA
"249",249,"Northern Lights Wind LLC",44.0154,-96.4366,0,NA
"250",250,"Lucky Wind",44.021,-96.4409,0,NA
"251",251,"Greenback Energy",44.0208,-96.4331,1.65,5072.45196586204
"252",252,"Redwood Falls Wind",44.50305,-95.1759,3.3,9185.4054564894
"253",253,"Fairmont Wind",43.573875,-94.446825,0,NA
"254",254,"Michigan Wind 1 LLC",43.716443478,-82.946158696,69,164637.154639176
"255",255,"Mower County Wind Energy Center",43.611018605,-92.596804651,98.9,312698.996238804
"256",256,"Wildorado Wind Ranch",35.287914286,-102.307741429,161,641379.529411765
"257",257,"Pine Tree Wind Power Project",35.260613,-118.189964444,135,186044.539977937
"258",258,"Burley Butte Windpark",42.500278,-113.912222,19.5,56158.8167994938
"259",259,"Golden Valley Wind Park LLC",42.438475,-113.915775,12,31184.7423960501
"260",260,"Milner Dam Wind Park LLC",42.474167,-114.010278,19.5,52107.77351855
"261",261,"Oregon Trail Wind Park",42.839,-114.990288889,13.5,35532.586034903
"262",262,"Pilgrim Stage Wind Park",42.790985714,-115.000042857,10.5,31554.4098625612
"263",263,"Salmon Falls Wind Park",42.689978571,-114.998928571,21,56849.9492991947
"264",264,"Thousand Springs Wind Park",42.88175,-114.9668,12,31254.5158696639
"265",265,"Tuana Gulch Wind Park",42.836914286,-114.9693,10.5,27947.3072072783
"266",266,"Buena Vista Energy LLC",37.800944737,-121.658273684,38,97858.2655161499
"267",267,"Hawi  Wind Farm",20.25628125,-155.850675,10.56,34706.9002526963
"268",268,"Mars Hill Wind Farm Project",46.544228571,-67.8111,42,130841.449699463
"269",269,"Kaheawa Pastures Wind Farm",20.81415,-156.55052,30,113367.191200169
"270",270,"GSG LLC",41.6386725,-89.149635,80,180246.451118036
"271",271,"Allegheny Ridge Wind Farm",40.36432,-78.60012,80,183681.6
"272",272,"Red Canyon",32.959503571,-101.223641071,84,294153.043442921
"273",273,"MinnDakota Wind LLC",44.306426,-96.418576,150,536201.971033607
"274",274,"Twin Buttes Wind Project",37.672882,-102.859732,75,247821.009427752
"275",275,"Marengo Wind Plant",46.377519658,-117.795513675,210.6,497809
"276",276,"Klondike Windpower III",45.573133143,-120.562030857,297.7,746004
"277",277,"Locust Ridge",40.854892308,-76.127784615,26,70021.6552758623
"278",278,"Sand Bluff Wind Farm",31.977242222,-101.304522222,90,237043.960765047
"279",279,"Post Oak Wind LLC",32.532396,-99.510921,200,585100.953387406
"280",280,"Buffalo Gap 2 Wind Farm",32.342345161,-100.211952258,232.5,682798.540183261
"281",281,"Biglow Canyon Wind Farm",45.650058986,-120.600864977,449.7,1056020.6557377
"282",282,"White Creek Wind Farm",45.816605618,-120.343652809,204.7,535003
"283",283,"Smoky Hills Wind Project Phase I",38.885325,-98.1147125,100.8,376920.352941176
"284",284,"Buffalo Mountain Energy Center",36.127013333,-84.34896,27,46637.3142857141
"285",285,"Prairie Star Wind Farm",43.655485246,-92.604083607,100.65,331592.705668403
"286",286,"NedPower Mount Storm",39.211712121,-79.213325,264,588989.094339623
"287",287,"Pomeroy Wind Farm",42.595943478,-94.751498913,286.4,823924.274407804
"288",288,"Camp Springs I",32.764852874,-100.807828736,130.5,419809.981728327
"289",289,"Cow Branch Wind Power LLC",40.449508333,-95.467641667,50.4,110350.860415447
"290",290,"CR Clearing LLC",40.213454167,-94.673620833,50.4,115721.028571429
"291",291,"Loess Hills Wind Farm LLC",40.411975,-95.53885,5,9318.01122053136
"292",292,"Eastridge Wind Project",43.9408125,-95.9180375,10,27793.9777383416
"293",293,"Windom Wind Project",43.960775,-95.043675,15,41767.61827912
"294",294,"Wind Capital Holdings LLC",40.085925926,-94.492751852,56.7,122438.444444445
"295",295,"EXC Wind 1 LLC",36.4984,-101.4873,10,20714.1303529412
"296",296,"EXC Wind 2 LLC",36.4887,-101.451075,10,22832.094
"297",297,"EXC Wind 3 LLC",36.4423,-101.3408125,10,19121.7712941176
"298",298,"EXC Wind 4 LLC",36.392497368,-101.375428947,79.8,244169.999999999
"299",299,"EXC Wind 5 LLC",36.4455,-101.8686,10,26839.4957647059
"300",300,"EXC Wind 6 LLC",36.4669875,-101.81405,10,29284.6154117647
"301",301,"Peetz Table Wind Energy",40.975492481,-103.400369173,199.5,581164.246594376
"302",302,"Terra-Gen VG Wind LLC",35.25597,-118.19395,15,12804.948531309
"303",303,"FPL Energy Oliver Wind II LLC",47.161171875,-101.2101875,48,175477.856991879
"304",304,"Steel Winds Wind Farm",42.8178875,-78.8676375,20,45599.8957565217
"305",305,"Shane's Wind Machine",44.1509,-96.1362,2,5861.704691684
"306",306,"Roadrunner I LLC",44.2911,-96.4342,1.3,NA
"307",307,"Windy Dog I LLC",44.285,-96.4342,1.3,NA
"308",308,"Blue Breezes LLC",43.6558,-94.1536,1.25,3224.07083623753
"309",309,"Blue Breezes II LLC",43.6558,-94.1564,1.25,3276.47478385509
"310",310,"Breezy Bucks II LLC",44.3144,-96.3317,1.3,NA
"311",311,"Salty Dog I LLC",44.2881,-96.4339,1.3,NA
"312",312,"Salty Dog II LLC",44.3144,-96.3256,1.3,NA
"313",313,"Wallys Wind Farm LLC",44.2847,-96.4256,1.3,NA
"314",314,"Sunset Breeze LLC",43.5811,-95.7758,1.25,3354.71686153744
"315",315,"Minnesota Breeze LLC",43.5834,-95.778,1.25,3364.84275864881
"316",316,"G Flow Wind LLC",43.5859,-95.776,1.25,3318.71696823834
"317",317,"Wolf Wind Enterprises LLC",43.5859,-95.7804,1.25,3457.27925572341
"318",318,"Green Acres Breeze LLC",43.581,-95.78,1.25,3515.96585805516
"319",319,"Horseshoe Bend Wind Park",47.500483333,-111.437883333,9,23513.9634538431
"320",320,"Champion Wind Farm LLC",32.393490909,-100.612376364,126.5,384548.368047393
"321",321,"Roscoe Wind Farm LLC",32.472949761,-100.661472727,209,534838.264038091
"322",322,"Munnsville Wind Farm LLC",42.926421739,-75.55896087,34.5,90000.5089409116
"323",323,"Breezy Bucks I LLC",44.3197,-96.3317,1.3,NA
"324",324,"Snyder Wind Farm",32.738266667,-100.736504762,63,165195.986099462
"325",325,"Langdon Wind  LLC",48.61838519,-98.305503797,118.5,433751.712926438
"326",326,"Prairie Winds ND1",47.937622078,-101.270793506,115.5,431146.588235294
"327",327,"Prairie Winds SD1",43.90100463,-98.776968519,162,656234.117647059
"328",328,"Logan Wind Energy",40.948520896,-103.244660448,201,564044.090141745
"329",329,"Old Trail Wind Farm",40.451651417,-88.57617725,198,590881.844774022
"330",330,"Fenton Wind Farm",43.873658394,-95.95009708,205.5,710551.522921834
"331",331,"Noble Clinton Windpark LLC",44.921359701,-73.993931343,100.5,172018.093553499
"332",332,"Noble Ellenburg Windpark LLC",44.869835185,-73.973735185,81,162360.649324864
"333",333,"Noble Bliss Windpark LLC",42.545114925,-78.258638806,100.5,195170.192307692
"334",334,"TX Jumbo Road Wind",34.712270741,-102.249323457,299.7,943169.895121194
"335",335,"Sleeping Bear LLC",36.638042222,-99.499873333,94.5,287900.352941176
"336",336,"Providence Heights Wind LLC",41.232319444,-89.585697222,72,170928.752419754
"337",337,"Elkhorn Valley Wind Farm",45.084080328,-117.807829508,100.65,304320.5
"338",338,"BC Energy LLC",43.6183,-95.4253,4,NA
"339",339,"KC Energy LLC",43.6292,-95.4169,4,NA
"340",340,"K&D Energy LLC",43.6181,-95.4172,4,NA
"341",341,"KSS Turbines LLC",43.6247,-95.4314,4,NA
"342",342,"Ewington",43.5958,-95.3833,4,12877.0276148797
"343",343,"Taconite Ridge 1 Wind Energy Center",47.57359,-92.59942,25,59198.7447929685
"344",344,"Dutch Hill Wind Project",42.534493333,-77.492306667,37.5,73396.725902993
"345",345,"Cohocton Wind Project",42.532434286,-77.438594286,87.5,173919.908889409
"346",346,"Harvest Windfarm LLC",43.837890625,-83.208703125,52.8,131721.333333334
"347",347,"Hot Springs Windfarm LLC",43.02995,-115.46542,21,39398.1059197941
"348",348,"Bennett Creek Windfarm LLC",43.05142,-115.48171,21,41144.9593287466
"349",349,"Buffalo Gap 3 Wind Farm",32.29597027,-100.158745946,170.2,484706.869231387
"350",350,"Camp Grove Wind Farm",41.077174,-89.623156,150,424005.027522937
"351",351,"Stanton Wind Energy LLC",32.21026625,-101.814625,120,374782.452092076
"352",352,"Osceola Windpower LLC",43.450235,-95.441825,100,278693.606843168
"353",353,"Chandler Hills Wind Farm",43.917,-95.953866667,1.98,5489.0782191837
"354",354,"Butler Ridge",43.409983333,-88.480852778,54,145628.748141987
"355",355,"Majestic 1 Wind Farm",35.403320755,-101.525622642,79.5,307998.705882353
"356",356,"South Trent Wind Farm",32.415709091,-100.181977273,101.2,331638.624349884
"357",357,"Wessington Springs",44.000788235,-98.596776471,51,210008.823529412
"358",358,"North Allegheny Windpower Project",40.412014286,-78.559077143,70,151740.628636364
"359",359,"Hatchet Ridge Wind Project",40.890411364,-121.794043182,101.2,272019.427748636
"360",360,"Michigan Wind 2",43.635838,-82.732992,90,305900.262295082
"361",361,"Pattern Gulf Wind",26.972182712,-97.573589322,283.2,748689.390236477
"362",362,"Dempsey Ridge Wind Farm",35.538333333,-99.817048485,132,393359.352941176
"363",363,"Goodnoe Hills",45.78182766,-120.521165957,94,213658.75
"364",364,"Tatanka Wind Power LLC",45.936216667,-98.98479,180,622899.823564617
"365",365,"Velva Windfarm LLC",48.094227778,-100.903938889,11.88,30666.2321030772
"366",366,"Whirlwind Energy Center",34.116680769,-101.096307692,59.8,200905.879847558
"367",367,"Charles City Wind Farm",43.03166,-92.726408,75,222484.044281539
"368",368,"Benton County Wind Farm",40.689829885,-87.48073908,130.5,269637.428571428
"369",369,"Forward Windpower LLC",40.098307143,-78.8617,29.4,53863.0857142857
"370",370,"Lookout Windpower LLC",39.86525,-78.932122222,37.8,103985.265306123
"371",371,"Tuolumne Wind Project",45.758712419,-120.677645161,136.6,368568.25
"372",372,"Christoffer Wind Energy I LLC",43.6259,-95.3569,0.95,6379.11469059095
"373",373,"Christoffer Wind Energy II LLC",43.6258,-95.3621,0.95,6433.05753857776
"374",374,"Christoffer Wind Energy III LLC",43.6258,-95.3674,0.95,6477.80478987275
"375",375,"Christoffer Wind Energy IV LLC",43.6258,-95.3727,0.95,6399.8130841117
"376",376,"Jeffers Wind 20 LLC",44.05652,-95.25642,50,165282.443304198
"377",377,"Spanish Fork Wind Park 2 LLC",40.073177778,-111.583866667,18.9,45395.9870495608
"378",378,"Mountain Wind Power  LLC",41.28952069,-110.503017241,60.9,154680.389038094
"379",379,"Mountain Wind Power II  LLC",41.268589474,-110.544171053,79.8,203647.648357727
"380",380,"Goat Wind LP",31.950246789,-100.801797248,149.6,412412.806039257
"381",381,"Odin Wind Farm",43.8953,-94.9142,20,61916.4532436152
"382",382,"Capricorn Ridge Wind LLC",31.931620639,-100.928831204,662.5,1920707.15315657
"383",383,"Winnebago Wind Power Project",43.31721,-93.77054,20,64191.5421625702
"384",384,"Barton Windpower LLC",43.3932925,-93.08761625,160,377524.206560386
"385",385,"Farmers City Wind LLC",40.556124658,-95.453108219,146,331669.153846154
"386",386,"Locust Ridge II LLC",40.8316,-76.228447059,102,205948.826086957
"387",387,"Silver Star I Wind Power Project",32.3338,-98.473604167,60,174425.060832658
"388",388,"McAdoo Wind Energy LLC",33.763955,-100.98417,150,579793.063845863
"389",389,"Turkey Track Wind  Energy LLC",32.206877876,-100.246197345,169.5,498783.542782893
"390",390,"Camp Springs II",32.73002375,-100.81512875,120,392589.898467294
"391",391,"Fowler Ridge Wind Farm LLC",40.579983944,-87.350484225,599.8,1427451.33333333
"392",392,"Sherbino I Wind Farm",30.7862,-102.5066,150,428766.947794
"393",393,"Diamond Willow Wind Facility",46.27387,-104.17693,30,85487.845967942
"394",394,"Elbow Creek Wind Project LLC",32.170203774,-101.414128302,121.9,357741.290882271
"395",395,"Cloud County Wind Farm",39.420559701,-97.642076119,201,682115.407407406
"396",396,"Pebble Springs Wind LLC",45.691676596,-120.121259574,98.7,213623.25
"397",397,"Hay Canyon Wind Power LLC",45.506902083,-120.583885417,100.8,214523.75
"398",398,"Dillon Wind LLC",33.9472,-116.5425,45,150010.436993255
"399",399,"Buffalo Ridge I LLC",44.421945833,-96.48005,50.4,149899.315970414
"400",400,"Elm Creek Wind LLC",43.75909697,-94.940754545,99,325805.74866489
"401",401,"Moraine II Wind LLC",44.111112121,-96.066490909,49.5,168310.102096325
"402",402,"South Chestnut LLC",39.751730435,-79.732273913,46,106308.421052632
"403",403,"Pioneer Prairie Wind Farm",43.471545055,-92.624208242,300.3,911823.882132924
"404",404,"Hull Wind II",42.2611,-70.8566,1.8,4425.04333333333
"405",405,"Red Hills Wind Project LLC",35.538668293,-99.407917073,123,411234.121212121
"406",406,"EcoGrove Wind LLC",42.456332836,-89.882879104,100.5,251200.856123803
"407",407,"Carroll Wind Farm",42.150067,-94.945299,150,496698.614914692
"408",408,"Adair Wind Farm",41.455713158,-94.667742105,174.8,494054.803804828
"409",409,"Walnut Wind",41.46352,-95.2245,153,466643.316781229
"410",410,"Central Plains Wind Farm",38.518563636,-101.159830303,99,281636.470588236
"411",411,"Flat Ridge Wind Farm",37.3773765,-98.510338,50,141255.176470588
"412",412,"Hackberry Wind Farm",32.781502778,-99.458579167,165.6,460529.447721386
"413",413,"Marshall Wind 2 LLC",44.3236,-95.8222,4.2,13503.6028340498
"414",414,"Marshall Wind 3 LLC",44.3211,-95.7942,4.2,13623.4776661546
"415",415,"Marshall Wind 4 LLC",44.3361,-95.8242,4.2,13257.3984180834
"416",416,"Marshall Wind 5 LLC",44.3303,-95.8344,2.1,7187.23513688244
"417",417,"Marshall Wind 6 LLC",44.3308,-95.8297,2.1,7159.90606369355
"418",418,"Kibby Wind Power Project",45.364152273,-70.550768182,132,268124.441112954
"419",419,"Crane Creek Wind Energy Center",43.405336364,-92.484948485,99,291683.963366732
"420",420,"High Plains Wind Power LLC",35.3460625,-101.535775,10,28417.7770588235
"421",421,"EXC Wind 11 LLC",35.8148875,-101.98185,10,26827.2963529412
"422",422,"EXC Wind 10 LLC",35.9614,-101.8022625,10,26631.8089411765
"423",423,"EXC Wind 9 LLC",35.9637,-101.8378,10,27663.7242352941
"424",424,"EXC Wind 8 LLC",36.0264125,-101.890825,10,28981.4901176471
"425",425,"EXC Wind 7 LLC",35.998525,-101.857325,10,29300.6283529412
"426",426,"Marshall Wind 1 LLC",44.3253,-95.8142,2.1,NA
"427",427,"Glenrock",43.055705435,-105.819980435,138,406719.263011887
"428",428,"Rolling Hills",43.065157576,-105.838833333,99,266884.157940514
"429",429,"Seven Mile Hill",41.946935443,-106.393621519,118.5,384161.163168328
"430",430,"Wheat Field Wind Power Project",45.670595652,-120.316732609,96.6,203934.25
"431",431,"Rattlesnake Road",45.687777551,-120.239718367,102.9,207649.75
"432",432,"Rail Splitter Wind Farm",40.332947761,-89.415620896,100.5,289549.749051394
"433",433,"Marble River Wind Farm",44.975833,-73.929722,215,524972.16
"434",434,"Kittitas Valley",47.140946042,-120.692520833,100.8,261677
"435",435,"Crosswind Energy Project",43.06754,-94.89695,21,63769.0996307193
"436",436,"Hardin Hilltop Wind LLC",42.085585714,-94.3506,14.7,40637.731441719
"437",437,"Shiloh Wind Project 2 LLC",38.163349333,-121.79134,150,423593.67464192
"438",438,"Wapsipinicon Wind Project",43.766716418,-92.677791045,100.5,310497.276907745
"439",439,"Hoosier Wind Project LLC",40.7178,-87.2631,106,175939.542857143
"440",440,"Flat Ridge Wind Energy LLC",37.368576,-98.4522715,50,144667.411764706
"441",441,"Noble Altona Windpark LLC",44.82064,-73.649670769,97.5,172424.888121205
"442",442,"Noble Wethersfield Windpark LLC",42.622928571,-78.260855952,126,256104.774193548
"443",443,"Noble Chateaugay Windpark LLC",44.898933803,-74.035759155,106.5,196549.195639816
"444",444,"Noble Great Plains Windpark LLC",36.474584211,-101.36425,114,287950.941176471
"445",445,"Langdon Wind II LLC",48.63073,-98.287574074,40.5,146655.519726399
"446",446,"Osceola Windpower II",43.433395,-95.46239,50,148091.384367003
"447",447,"FPL Energy Ashtabula Wind LLC",47.1294,-97.8853,148.5,495758.195127084
"448",448,"EC&R Panther Creek Wind Farm I",32.028912632,-101.422821053,142.5,487566.842640478
"449",449,"Luverne Wind Farm",47.343460606,-97.928854545,49.5,174900.816722188
"450",450,"EC&R Panther Creek Wind Farm II",31.93692987,-101.300819481,115.5,382406.220194737
"451",451,"FPL Energy Crystal Lake Wind LLC",43.195196,-93.85359,150,471652.440386603
"452",452,"FPL Energy Story Wind LLC",42.105197,-93.286587,150,470108.489610666
"453",453,"FPL Energy Crystal Lake Wind II LLC",43.300495,-93.79157625,200,499780.535415465
"454",454,"Threemile Canyon Wind I LLC",45.678291667,-119.93885,9.9,21348.5
"455",455,"Cassia Wind Farm LLC",42.84456,-115.03664,10.5,24014.1641417346
"456",456,"Cassia Gulch Wind Park LLC",42.8765,-115.017366667,18.9,42604.2356736949
"457",457,"Grand Ridge Wind Energy Center",41.203281429,-88.704832143,210,403468.095678937
"458",458,"Forward Wind Energy Center",43.620705814,-88.5261,129,336872.083700032
"459",459,"High Lonesome Mesa  LLC",34.4679125,-105.96131,100,264399.774878783
"460",460,"Buffalo Bear LLC",36.774122222,-99.6553,18.9,60347.6805882353
"461",461,"Elkhorn Ridge Wind LLC",42.673259259,-97.665977778,81,259248.352941176
"462",462,"Willow Creek Energy Center",45.652745833,-119.992785417,72,157312.75
"463",463,"High Sheldon Wind Farm",42.744014667,-78.393793333,112.5,252692.463157895
"464",464,"Bull Creek Wind",32.931947778,-101.580328333,180,354317.070961918
"465",465,"Ocotillo Windpower",32.142803571,-101.396942857,58.8,147996.265141336
"466",466,"Happy Jack Windpower Project",41.1399,-104.99415,29.4,80360.7278384968
"467",467,"Notrees Windpower",31.994008333,-102.828525,152.55,330654.634658355
"468",468,"Butter Creek Power LLC",45.7017,-119.4222,4.95,12473.25
"469",469,"Big Top LLC",45.655,-119.4647,1.65,3748.99999999975
"470",470,"Four Corners Windfarm LLC",45.644892,-119.4534,10,28041.25
"471",471,"Four Mile Canyon Windfarm LLC",45.6447,-119.4533,10,25382.5
"472",472,"Oregon Trail Windfarm LLC",45.7122,-119.4044,9.9,24324.7499999997
"473",473,"Pacific Canyon Windfarm LLC",45.6542,-119.4869,8.25,18771.75
"474",474,"Sand Ranch Windfarm LLC",45.6783,-119.93885,9.9,23088.5
"475",475,"Wagon Trail LLC",45.705385,-119.4137,3.3,7006.75
"476",476,"Ward Butte Windfarm LLC",46.4326,-117.805475,7.2,17047.75
"477",477,"EC&R Panther Creek Wind Farm III",31.992354135,-101.116691729,199.5,614253.45640034
"478",478,"Stony Creek Wind Farm LLC",40.030968571,-78.815168571,52.5,148780.046511628
"479",479,"Pyron Wind Farm LLC",32.591458434,-100.674124096,249,741813.611723952
"480",480,"EC&R Papalote Creek I LLC",27.935134862,-97.462653211,179.85,529609.753070006
"481",481,"Inadale Wind Farm LLC",32.507535533,-100.581183756,197,495793.814845986
"482",482,"Smoky Hills Wind Project Phase II",38.886611111,-98.24339596,148.5,540178.588235294
"483",483,"Stetson Wind I",45.525626316,-67.978710526,57,140625.495918942
"484",484,"Rollins Wind Project",45.3459875,-68.38024,60,136687.241448417
"485",485,"Stetson Wind II",45.614976471,-67.970988235,25.5,54817.0201833081
"486",486,"Grand Meadow",43.696043284,-92.668401493,100.5,313348.108582463
"487",487,"Ashtabula Wind Energy Center",47.1244,-97.8961,48,155987.190258381
"488",488,"Langdon Wind Energy Center",48.713058148,-98.248902593,40.5,148263.808140183
"489",489,"Bison I Wind Energy Center",46.9807,-101.532919032,81.8,234992.928896991
"490",490,"McFadden Ridge",41.65595,-106.037521053,28.5,87542.2211368182
"491",491,"High Plains",41.675064545,-106.011125758,99,284395.563841679
"492",492,"Armenia Mountain Wind Farm",41.755501493,-76.890462687,100.5,259711.623529412
"493",493,"Rolling Thunder Wind Farm",44.47662,-99.13611,25,94942.5882352941
"494",494,"Nobles Wind Project",43.683871642,-95.789575373,201,676965.91514928
"495",495,"NaturEner Glacier Wind Energy 1",48.512987183,-112.117313099,106.5,273144.842969096
"496",496,"NaturEner Glacier Wind Energy 2",48.541918261,-112.194876812,103.5,272271.383720929
"497",497,"Steel Winds II",42.807233333,-78.8617,15,38285.8
"498",498,"Milford Wind Corridor I LLC",38.535680412,-112.934815464,203.5,409769.399396358
"499",499,"Sheffield Wind",44.675975,-72.10125,40,84686.0952380952
"500",500,"Kaheawa Wind Power II LLC",20.794657143,-156.535835714,21,64149.7938155188
"501",501,"Bull Hill Wind Project",44.717,-68.159210526,34.2,112111.487335125
"502",502,"Kahuku Wind Power LLC",21.680966667,-157.974683333,30,74949.3028660649
"503",503,"Campbell Hill Windpower",43.014919697,-106.000875758,99,312340.979247265
"504",504,"Silver Sage Windpower",41.13032,-105.02795,42,121562.747685548
"505",505,"Casper Wind Farm",42.887263636,-106.218709091,16.5,39222.0931725593
"506",506,"Streator Cayuga Ridge South",40.974854667,-88.437756667,300,791579.993015784
"507",507,"Star Point Wind Project LLC",45.506,-120.488793617,98.7,236791.75
"508",508,"Rugby Wind Power Project",48.507040845,-99.951243662,149.1,441284.631578948
"509",509,"Dry Lake Wind LLC",34.6549,-110.284573333,63,114080.029135071
"510",510,"Mesalands Comm College Wind Turbine",35.1697,-103.739,1.5,2858.47627906941
"511",511,"Milford Wind Corridor Stage II LLC",38.585225,-112.930841176,102,189495.137935789
"512",512,"Blue Canyon Windpower V LLC",34.820145455,-98.47269697,99,361690.941176471
"513",513,"Meadow Lake Wind Farm LLC",40.638209917,-86.935378512,199.65,484614.75862069
"514",514,"Blackstone Wind Farm LLC",41.135345588,-88.615039706,102,266141.780514383
"515",515,"Lost Lakes Wind Farm LLC",43.343642623,-95.277568852,100.65,328542.014542474
"516",516,"Meadow Lake Wind Farm II LLC",40.645590909,-87.026439394,99,222721.090909091
"517",517,"Blackstone Wind Farm II LLC",41.162394697,-88.538680303,198,500671.038261994
"518",518,"Meadow Lake Wind Farm III LLC",40.599955072,-87.026,103.5,232860.947368421
"519",519,"Greensburg Wind Farm LLC",37.54988,-99.34389,12.5,40238.0721176474
"520",520,"Wilton Wind II LLC",47.117436061,-100.662730303,49.5,194484.929422394
"521",521,"Ashtabula Wind II LLC",47.2958625,-97.9457025,120,396721.570708112
"522",522,"Payne's Ferry",42.824778571,-115.009692857,21,59885.9438229867
"523",523,"Camp Reed",42.8162,-115.057773333,22.5,57112.1527670717
"524",524,"Yahoo Creek",42.763214286,-114.998528571,21,60612.255539674
"525",525,"Beaver Ridge Wind",44.4952,-69.335366667,4.5,12426.2845409667
"526",526,"Stoney Corners Wind Farm",44.19,-85.2983,57.4,NA
"527",527,"Big Sky Wind LLC",41.587525439,-89.421441228,239.4,521203.017469225
"528",528,"Tuana Springs",42.89325,-115.01715,16.8,34368.2859008791
"529",529,"Eurus Combine Hills Turbine Ranch 2",45.946936508,-118.589977778,63,156169.75
"530",530,"Highland Wind Project",40.274936,-78.700292,62.5,134237.284044944
"531",531,"Beech Ridge Energy LLC",38.078459701,-80.522864179,100.5,219595.228915663
"532",532,"Harvest Wind Project",45.791268837,-120.307719767,98.9,253751.75
"533",533,"Langford Wind Power",31.124175,-100.663595,150,520865.048219543
"534",534,"Barton Chapel Wind Farm",33.072535,-98.329901667,120,282653.851749843
"535",535,"Windy Flats Wind Project",45.723231579,-120.803215877,262.2,661689.75
"536",536,"Cedar Hills",46.244530769,-103.7681,19.5,54852.4156074023
"537",537,"Colorado Highlands Wind",40.740610714,-102.762307143,91,359886.570886321
"538",538,"University of Delaware Wind Turbine",38.7829,-75.1649,2,4787.86813186813
"539",539,"Meadow Lake Wind Farm IV",40.67732766,-87.036580851,98.7,188322.08
"540",540,"PPL Frey Farm Landfill Wind",39.9591,-76.4559,3.2,6313.83333333333
"541",541,"Pillar Mountain Wind Project",57.785683333,-152.449216667,9,20778.6226464271
"542",542,"Vantage Wind Energy LLC",46.953915,-120.161808333,90,250932.75
"543",543,"Lost Creek Wind Energy Facility",39.98895,-94.507546,150,434997.9
"544",544,"Spring Valley Wind Project",39.096515152,-114.489277273,151.8,298506.571901213
"545",545,"Day County Wind LLC",45.221312121,-97.902372727,99,434083.411764706
"546",546,"Lower Snake River Wind Energy Project",46.522706711,-117.81872349,342.7,800315.213114754
"547",547,"Bent Tree Wind Farm Phase 1",43.757521311,-93.462855738,201.3,532638.173970528
"548",548,"Glacier Hills",43.577062222,-89.111527778,162,388153.202184522
"549",549,"FPL Energy Montezuma Winds LLC",38.16169375,-121.797,36.8,94016.4859548066
"550",550,"Cedar Creek II",40.926734146,-103.788241463,250.8,717246.315263968
"551",551,"Goshen Phase II",43.468675904,-111.841522892,124.5,364766.94852609
"552",552,"EC&R Papalote Creek II LLC",27.977421839,-97.350917241,200.1,590158.938098143
"553",553,"Waverly Community Wind Project",42.7317,-92.4711,2.7,NA
"554",554,"Roth Rock Wind Farm LLC",39.2675375,-79.45486875,40,111108.738461538
"555",555,"Roth Rock North Wind Farm, LLC",39.285175,-79.437175,10,27134.2153846154
"556",556,"Kit Carson Windpower",39.367911765,-102.328847059,51,181174.09983493
"557",557,"Welcome Wind Turbine",43.6768,-94.592,0,NA
"558",558,"Lakota Wind Wind Farm",43.376471429,-94.135842857,10.5,37400.3736015793
"559",559,"Iowa Lakes Superior Wind Farm",43.445971429,-94.980542857,10.5,39535.6313110517
"560",560,"MA Military Reservation Wind Project",41.6079,-70.617066667,4.5,7229.36470588235
"561",561,"Iowa Lakes Community College Wind Farm",42.3903,-94.8156,1.65,3561.42902011126
"562",562,"Texico Wind Ranch LP",34.358366667,-103.056266667,1.98,4686.11236251247
"563",563,"Lubbock Wind Ranch",33.5693,-101.7621,7.5,12323.6583529412
"564",564,"Cedro Hill Wind LLC",27.576275,-98.908815,150,507269.017445714
"565",565,"Taloga Wind LLC",35.864227778,-98.943087037,129.6,452331.882352941
"566",566,"Laredo Ridge Wind LLC",41.879492593,-98.022159259,81,330047.647058823
"567",567,"Little Pringle I Wind Farm",35.9468,-101.53832,10,18508.9545882353
"568",568,"Little Pringle II Wind Farm",35.91858,-101.53536,10,19135.6810588239
"569",569,"Chestnut Flats Wind Farm",40.5206,-78.479857895,38,102537.836065574
"570",570,"Grant County Wind LLC",45.808,-95.89735,21,63375.5580008722
"571",571,"Crofton Bluffs Wind LLC",42.699390909,-97.577621364,42,174211.411764706
"572",572,"Alta Wind Energy Center I",35.037526,-118.371619,150,376602.036827233
"573",573,"Flat Water Wind Farm",40.0056925,-95.9044775,60,215984.823529411
"574",574,"Minonk Wind Farm",40.872226,-88.94989,200,630590.07596847
"575",575,"Sandy Ridge Wind Farm",40.734464,-78.26972,50,139443.457627119
"576",576,"OU Spirit Wind Farm",36.330706818,-99.489381818,101.2,341568.8125
"577",577,"Hardscrabble Wind Power LLC",43.1436,-74.895018919,74,172808.826529655
"578",578,"Big Blue",43.623466667,-94.217572222,36,120300.586513914
"579",579,"Northern Colorado Wind LLC",40.979296296,-102.871979012,174.3,417621.256584998
"580",580,"Alta Wind Energy Center II",35.023889,-118.295278,150,319502.676168733
"581",581,"Alta Wind Energy Center III",35.023889,-118.295278,150,339822.055795446
"582",582,"Alta Wind Energy Center IV",35.008611,-118.242222,102,158798.977070046
"583",583,"Alta Wind Energy Center V",35.050694643,-118.218853571,168,256228.217692124
"584",584,"Carleton College",43.9601,-92.85155,3.3,7629.45234393471
"585",585,"Dunlap",42.027382432,-106.174872973,111,358582.977646613
"586",586,"Criterion Wind Project",39.3819,-79.321353571,70,178325.095890411
"587",587,"Dutch Wind Energy",33.8942,-116.5603,8,NA
"588",588,"Garnet Wind Energy Center",33.905130769,-116.582476923,0,NA
"589",589,"Loraine Windpower Park LLC",32.4508076,-100.7184687,150,417700.036169307
"590",590,"Cedar Point Wind",39.446779856,-103.670205755,250.2,700645.937711386
"591",591,"Big Horn Wind II",45.940824,-120.289776,50,117024.5
"592",592,"Juniper Canyon I Wind Project",45.919167,-120.303889,151.2,323384.5
"593",593,"FPL Energy Illinois Wind LLC",41.811954483,-88.885338621,217.5,642321.860047208
"594",594,"Sunray Wind I",35.943760606,-101.900357576,49.5,181633.818181818
"595",595,"Top of the World Windpower Project",42.951678182,-105.772719091,200.2,599851.636723589
"596",596,"Crossroads Wind Farm",36.075716327,-98.76499898,227.5,824098.9375
"597",597,"Leaning Juniper Wind Power II",45.621723333,-120.185577778,201.3,412853.249999999
"598",598,"White Oak Energy LLC",40.586609,-89.065085,150,446377.278115822
"599",599,"Elk City LLC",35.490034862,-99.771901835,199.7,708027.829787234
"600",600,"Baldwin Wind LLC",47.1133,-100.7086,102.4,381131.472286339
"601",601,"Portsmouth Wind Turbine",41.6143,-71.2514,1.5,NA
"602",602,"Uilk Wind LLC",43.9813,-96.4232,0,NA
"603",603,"Fox Island Wind LLC",44.0939,-68.8658,4.5,10941.8263393949
"604",604,"Red Mesa Wind LLC",35.256828125,-107.381821875,102.4,203701.537313332
"605",605,"Keenan II Renewable Energy Co LLC",36.276807576,-99.504890909,151.8,661739.875
"606",606,"Lakefield Wind Project LLC",43.672172263,-95.140486861,205.5,494455.116626132
"607",607,"Adams Wind Generations LLC",44.914975,-94.723833333,0,NA
"608",608,"Dry Lake Wind II LLC",34.61076,-110.168716667,63,116793.418245795
"609",609,"Hoosac Wind",42.728472,-73.046651,28.5,91944.3440646848
"610",610,"Community Wind North LLC",44.248958333,-96.406758333,30,98454.5024732301
"611",611,"Ridgewind",44.031218182,-96.048854545,25.3,88595.5034519812
"612",612,"Ashtabula Wind III LLC",47.167764103,-97.932158974,62.4,203055.998520374
"613",613,"Danielson Wind Farms LLC",45.068108333,-94.742933333,0,NA
"614",614,"Notus Wind 1",41.6083,-70.6089,1.65,4784.30769230769
"615",615,"Sherbino II",30.771977586,-102.508777586,145,385792.603756753
"616",616,"Elk Wind Farm",42.598917647,-91.373464706,42.5,145984.002242877
"617",617,"Gratiot Wind Park",43.433889,-84.4975,102.4,248926.627532782
"618",618,"Buffalo Ridge II LLC",44.526198095,-96.63122381,210,600688.572897983
"619",619,"Ryegrass Windfarm",43.03601,-115.44024,23,54568.9825653824
"620",620,"Hammett Hill Windfarm",43.00807,-115.45417,23,59382.8397508831
"621",621,"Mainline Windfarm",43.04608,-115.41071,23,58303.6942627367
"622",622,"Desert Meadow Windfarm",43.05605,-115.45076,23,60746.8323548962
"623",623,"Cold Springs Windfarm",43.02418,-115.40458,23,52208.6502870951
"624",624,"Oak Glen Wind Farm",43.915516667,-93.125495833,43.2,124412.550690776
"625",625,"Valley View Transmission LLC",43.90262,-96.02134,10,30236.9144009064
"626",626,"Two Ponds Windfarm",43.03057,-115.48885,23,61316.6699670137
"627",627,"Laurel Mountain",39.000781967,-79.886942623,97.6,226488.623376623
"628",628,"Blue Creek Wind Project",40.965709868,-84.606313816,304,791934.162162162
"629",629,"Mountain View IV",33.882808163,-116.5607,49,161563.324153837
"630",630,"Bishop Hill Energy LLC",41.195608797,-90.140356541,209.4,618401.333333333
"631",631,"Crystal Lake 3 LLC",43.345161364,-93.890770455,66,157515.810506879
"632",632,"Garden Wind LLC",42.9692,-93.2697,150,392709.133478868
"633",633,"Ralls Wind Farm",33.6613,-101.38582,10,24916.3351764706
"634",634,"Manzana Wind LLC",34.912381,-118.446638,189,497682.322936809
"635",635,"Settlers Trail Wind Farm LLC",40.46793617,-88.014718085,150.4,359993.790106571
"636",636,"Laurel Wind Farm",41.883333,-92.933333,119.6,383216.675007861
"637",637,"Rolling Hills Wind Farm",41.215368912,-94.755053886,443.9,NA
"638",638,"Ocotillo Express LLC",32.747267857,-116.040566964,257.6,499948.232017862
"639",639,"KODE Novus I",36.5294125,-101.365215,80,198126.864705882
"640",640,"DeWind Frisco",36.4985,-101.60475,20,37208.3682352945
"641",641,"Trinity Hills",33.404985556,-98.680023333,225,583690.651704723
"642",642,"North Hurlburt Wind LLC",45.746915094,-120.074822642,265,540646.75
"643",643,"Kawailoa Wind",21.608473333,-158.041916667,69,126871.144795927
"644",644,"Palouse",47.134927586,-117.327077586,104.4,318911.25
"645",645,"Winona County Wind LLC",44.1125,-91.924722,1.5,1687.64839687662
"646",646,"South Hurlburt Wind LLC",45.578074138,-120.006281897,290,555497.901639344
"647",647,"Horseshoe Bend Wind LLC",45.667384483,-120.04904569,290,588665.508196721
"648",648,"Shirley Wind",44.3484,-87.937025,20,60936.0902588157
"649",649,"GE 1 5 SLE Prototype",35.1333,-118.6333,1.5,NA
"650",650,"GE 1 6 100 Prototype",35.155278,-118.369444,1.6,3368.900938755
"651",651,"Record Hill Wind",44.660590909,-70.631163636,50.6,121735.705402608
"652",652,"PaTu Wind Farm LLC",45.60735,-120.6173,9,29407.7500000003
"653",653,"Shiloh III Wind Project LLC",38.165098,-121.761764,102.5,270073.188799059
"654",654,"Minco Wind I, LLC",35.27995,-97.983703226,99.2,360340.588235294
"655",655,"Broken Bow Wind LLC",41.4582692,-99.5583672,80,309908.117647059
"656",656,"Teichert Materials-Teichert Vernalis",37.6167,-121.3564,1.5,1853.48750742064
"657",657,"Pinnacle Wind Force LLC",39.426491304,-79.046626087,55.2,171935.016393443
"658",658,"New Harvest Wind Project LLC",42.172354,-95.449124,100,271607.945815163
"659",659,"LE Wind Turbine 1",41.5847,-81.5257,2.5,NA
"660",660,"Blue Canyon Windpower VI LLC",34.913943636,-98.553847273,99,403600.235294118
"661",661,"Paulding Wind Farm II",41.027629091,-84.7489,99,309350.584615385
"662",662,"Foundation ST",37.71385,-121.5214,2,2122.74522305848
"663",663,"Wolverine",41.3931,-94.4448,1.5,5413.05536793617
"664",664,"Bulldog",41.2257,-94.4404,1.5,5921.61842540583
"665",665,"Linden Wind Energy Project",45.7443,-120.78348,50,142938.5
"666",666,"Union City Wind Turbine",40.1907,-84.8172,1,NA
"667",667,"Randolph Eastern School Wind Turbine",40.2103,-84.8221,1,NA
"668",668,"Ironwood Wind",37.814264384,-99.762279452,167.9,645810
"669",669,"Vestas Towers America, Inc.",38.1634,-104.6214,1.8,3093.66332704443
"670",670,"Prairie Rose Wind Farm",43.797046218,-96.285418487,190.4,690231.797735767
"671",671,"Zotos International WPGF",42.88665,-76.968,3.3,2612.36347826087
"672",672,"Elm Creek Wind II LLC",43.700277419,-94.879243548,148.8,426560.162619626
"673",673,"Town of Falmouth WWTP",41.664,-70.3056,3.3,3090.30769230769
"674",674,"Cimarron Windpower II",37.898549123,-100.382510526,131.1,564696.705882353
"675",675,"Pioneer Trail Wind Farm, LLC",40.723234043,-87.579185106,150.4,442564.839177896
"676",676,"Post Rock Wind Power Project, LLC",38.845235821,-98.333080597,201,821631.272727273
"677",677,"DOE Golden NWTC Turbine Side",39.9139,-105.2153,0,NA
"678",678,"Vasco Winds",37.792,-121.704767647,78.2,240057.829850502
"679",679,"Montezuma Wind II",38.118617647,-121.8218,78.2,217595.978107989
"680",680,"Berkshire Wind Power Project",42.58527,-73.27498,15,48825.9149074245
"681",681,"Shiloh IV Wind Project LLC",38.135094,-121.850372,102.5,289265.89146263
"682",682,"UMM Wind Turbine",45.5847,-95.8779,1.65,5808.6264973646
"683",683,"Suzlon Project VIII LLC",35.7496,-102.2726,4.2,12433.0496470588
"684",684,"Laurel Hill Wind",41.531973333,-77.030096667,69,178380.235294118
"685",685,"Gordon Butte Wind LLC",46.4121,-110.334016667,9,37602.8237217314
"686",686,"Sawtooth Wind Project",42.981885714,-115.394328571,22.4,56669.0838415065
"687",687,"Los Vientos Wind 1A",26.326543678,-97.587156322,200.1,612209.244618218
"688",688,"Los Vientos Wind 1B",26.34817381,-97.680570238,201.6,542046.496305124
"689",689,"TPW Petersburg",41.864548148,-97.973862963,40.5,166770.352941176
"690",690,"Coastal Energy Project",46.79295,-124.0655,6,13803.5
"691",691,"Pacific Wind LLC",34.896791429,-118.427802857,140,297524.781854341
"692",692,"Power County Wind Park South",42.704911111,-112.759777778,22.5,58073.7487539338
"693",693,"Power County Wind Park North",42.740722222,-112.753666667,22.5,65308.5594674139
"694",694,"Cimarron Wind Energy LLC",37.872569444,-100.273943056,165.6,708255.574468084
"695",695,"Rockland Wind Farm",42.687740909,-112.916920455,79.2,242520.701205645
"696",696,"Brown County Wind Turbine",39.9735,-90.6994,1.5,3297.62332126177
"697",697,"Mehoopany Wind Energy LLC",41.467646818,-76.077191364,140.8,381996.979591837
"698",698,"Windstar 1",35.03637,-118.325805,120,274086.973200919
"699",699,"Kingman 1",35.1457,-114.06784,10,22664.5765942348
"700",700,"Flat Ridge 2 Wind Energy LLC",37.369165068,-98.249604422,470.4,1890554.625
"701",701,"Foundation AB",38.232222,-122.092778,1.5,2734.23421263706
"702",702,"Foundation IE",34.0849,-117.5264,1,432.730102492881
"703",703,"Bison 2 Wind Energy Center",46.950519143,-101.564502286,105,299829.153611133
"704",704,"Bison 3 Wind Energy Center",46.964432286,-101.607926,105,305477.898862421
"705",705,"Magic Valley Wind Farm I LLC",26.462486607,-97.679270536,201.6,658901.342231199
"706",706,"Lime Wind",44.396944,-117.271944,3,NA
"707",707,"GL Wind",44.11535,-91.922,5,12091.085014549
"708",708,"WCROC Wind Farm",45.5897,-95.8771,1.65,4549.97800005
"709",709,"Rippey Wind Farm",41.994185,-94.20685,50,174224.875295808
"710",710,"Hawkeye Wind Farm",42.93116,-92.029466667,37.5,139266.970770805
"711",711,"Alta Wind VI",35.030855,-118.293188,150,283238.2208995
"712",712,"Alta Wind VIII",35.026683,-118.234811,150,262710.233197887
"713",713,"Franklin County Wind Farm",42.610711667,-93.33461,99,235106.399559723
"714",714,"Sigel Wind Park",43.850833,-82.783611,64,237463.346938776
"715",715,"Minden Wind Park",43.67,-82.758611,32,107187.428571428
"716",716,"McKinley Wind Park",43.874966667,-83.257011111,14.4,50269.4693877549
"717",717,"Ipswich Wind Turbine",42.716389,-70.841944,1.6,3331.05241288491
"718",718,"Caney River Wind Project",37.427606847,-96.434095045,199.8,718648.6875
"719",719,"Wildcat Wind Farm I, LLC",40.340036,-85.8640448,200,646433.877551021
"720",720,"Golden Spread Panhandle Wnd Rch",35.233655882,-102.202641176,78.2,275595.882352941
"721",721,"Howard Wind Farm",42.312708148,-77.536985185,55.35,129411.911660311
"722",722,"Eclipse Wind Farm",41.556104598,-94.679485057,200.1,740535.727474654
"723",723,"Vienna Wind Farm",42.15925,-92.782392656,150.2,463137.533656907
"724",724,"Morning Light Wind Farm",41.500556,-94.643611,101,366016.003436737
"725",725,"Eolos Wind Energy Research Field Station",44.728333,-93.048056,2.5,3541.55831606895
"726",726,"Wildcat Wind",32.9554,-103.279584615,27.3,89539.4792399665
"727",727,"Harvest II Windfarm",43.824444,-83.220278,59.4,208124.506838853
"728",728,"KODE Novus II",36.57488,-101.474965,40,95081.6727272727
"729",729,"Horse Butte Wind I, LLC",43.4048375,-111.739446875,57.6,153352.434146647
"730",730,"Macho Springs Power I",32.555689286,-107.509007143,50.4,119809.331486061
"731",731,"Minco Wind II, LLC",35.32924286,-98.05861746,100.8,369648.705882353
"732",732,"Brookfield Tehachapi 1",35.008333,-118.241389,102,261460.059102118
"733",733,"Musselshell Wind Project",46.283367143,-109.471298571,10.5,24471.3256159754
"734",734,"Shady Oaks Wind Farm",41.665122535,-89.093242254,109.5,331205.190235772
"735",735,"Musselshell Wind Project Two LLC",46.265375714,-109.502574286,10.5,28806.2446881695
"736",736,"Cashton Greens Wind Farm",43.7364,-90.80455,5,11059.3005479968
"737",737,"Spinning Spur Wind LLC",35.30679,-102.4732,161,691830
"738",738,"Bobcat Bluff Wind Project LLC",33.503546,-98.578716,150,404751.445791435
"739",739,"Spearville 3 LLC",37.84067619,-99.846239683,100.8,408032.11764706
"740",740,"Pocahontas Prairie Wind Farm",42.59795,-94.6081525,80,255095.822366309
"741",741,"Kingdom Community Wind",44.750580952,-72.425057143,63,159180.96
"742",742,"Busch Ranch Wind Energy Farm",37.781875,-104.4718625,28.8,90120.1236385225
"743",743,"Senate Wind LLC",33.198108,-98.363681333,150,500446.296411961
"744",744,"Lake Winds Energy Park",43.868858929,-86.353319643,100.8,262173.551020408
"745",745,"Canadian Hills Wind",35.659633333,-98.092934815,298.45,1226097.21212121
"746",746,"Highland North Wind Farm",40.321846667,-78.6785,75,190162.137931035
"747",747,"NaturEner Rim Rock Energy",48.828588889,-112.106399206,189,558515.33227057
"748",748,"Auwahi Wind Energy",20.5963875,-156.3182875,24,82938.1648132444
"749",749,"Twin Ridges Wind Farm",39.766413676,-78.870620147,139.4,425142.612244898
"750",750,"Patton Wind Farm",40.630278,-78.686389,30,95650.7755102041
"751",751,"Anacacho Wind Farm, LLC",29.1911,-100.1907,99,329648.34654858
"752",752,"Granite Reliable Power",44.780166667,-71.304845455,99,214244.542372882
"753",753,"California Ridge Wind Energy LLC",40.218930597,-87.893770896,214.4,759780.203389831
"754",754,"Shooting Star Wind Project LLC",37.514964615,-99.450615385,104,422019.529411765
"755",755,"High Mesa Energy LLC",42.89194,-115.040163158,40,90598.0183372403
"756",756,"Beebe Renewable Energy LLC",43.256944,-84.499722,81.6,211458.367346939
"757",757,"Whitetail Wind Energy LLC",27.490513333,-98.985926316,92.3,261186.080561695
"758",758,"Mt Wachusett Community College",42.58965,-71.9839,3.3,5236.51527391412
"759",759,"Spruce Mountain WInd",44.41586,-70.55902,20,62582.9712043569
"760",760,"Buffalo Center Wind LLC",43.1565,-92.6236,0,NA
"761",761,"Chisholm View Wind Project",36.575608571,-97.696357857,224,891230.808510638
"762",762,"Pioneer Grove Wind Farm",41.85265,-91.2327,6,12766.7571674745
"763",763,"Community Wind South",43.715433333,-95.805293333,30.75,110778.716095293
"764",764,"BayWa r.e Mozart LLC",32.991758333,-100.530941667,30,80328.8815638085
"765",765,"Charlestown Wind Turbine",42.0425,-71.3937,0,NA
"766",766,"Windwalkers LLC",43.3847,-93.2215,0,NA
"767",767,"Rocky Ridge Wind Project",35.129386022,-99.000950538,148.8,667225.88235294
"768",768,"Wolf Ridge Wind",33.731785333,-97.406412,112.5,388825.744887332
"769",769,"Roeder Family Wind Farm LLC",43.2973,-93.2832,1.6,4896.2023860616
"770",770,"Solano Wind Plant III",38.087781818,-121.78426,127.8,355844.347826087
"771",771,"Foundation Cemex River Plant",34.56105,-117.30655,3.2,2667.40237150751
"772",772,"Foundation Cemex BMQ",34.62215,-117.1121,3,3237.52719045159
"773",773,"Heritage Garden Wind Farm I LLC",45.799593571,-86.54294,28,81206.5520353304
"774",774,"Foundation Superior Farms",38.4201,-121.8175,1,1488.68350065861
"775",775,"Foundation Wal-Mart Red Bluff",40.1112,-122.1939,1.5,1719.97584858236
"776",776,"Meadow Creek Project Company",43.551092982,-111.814408772,119.7,326877.832659816
"777",777,"Bishop Hill II Wind Farm",41.238642,-90.174792,80,280665.647058824
"778",778,"Foundation Cemex Madison",38.6876,-121.9352,1,1513.44072944253
"779",779,"Foundation RRM",33.917222,-116.815,3,8881.20535948261
"780",780,"Foundation NWNA",33.914167,-116.749167,3.2,13594.5653162322
"781",781,"Limon Wind I",39.446667,-103.552778,200,693334.758845373
"782",782,"Limon Wind II",39.341389,-103.581111,200,597124.420187144
"783",783,"Ensign Wind LLC",37.612583721,-100.280230233,98.9,433043.294117647
"784",784,"Groton Wind LLC",43.761679167,-71.806391667,48,109827.082233622
"785",785,"North Sky River Energy LLC",35.335576,-118.186349,160,434145.015184434
"786",786,"Perrin Ranch Wind LLC",35.429780645,-112.289745161,99.2,208116.810225527
"787",787,"Cirrus Wind 1 LLC",33.027288235,-101.696770588,61.2,NA
"788",788,"Minco Wind III, LLC",35.37612857,-98.1539746,100.8,444227.647058823
"789",789,"NextEra-Blackwell Wind, LLC",36.850930769,-97.426215385,59.8,238059.882352941
"790",790,"Spion Kop Wind Farm",47.339684,-110.63594,40,134674.836596419
"791",791,"WKN Wagner",33.90805,-116.5556,6,17972.5991592759
"792",792,"Georgia Mountain Community Wind Farm",44.661667,-73.07,10,29893.9340804957
"793",793,"Vansycle II Wind Energy Center",45.911218605,-118.589444186,98.9,257876.75
"794",794,"Tuscola Bay Wind",43.525961067,-83.653105733,120,375814.530612246
"795",795,"Majestic II Wind",35.389815686,-101.58777451,79.6,304887.636363636
"796",796,"Blue Summit Wind LLC",34.304835294,-99.376871765,135.4,463902.371829957
"797",797,"Luther College Wind Project",43.3091,-91.8177,1.6,3630.7090603835
"798",798,"NLMU Wind",40.9548,-91.3952,1.5,5293.24999999975
"799",799,"Harbor Wind LLC",27.832222,-97.440278,9,NA
"800",800,"Fire Island Wind",61.130309091,-150.241481818,17.6,49775.6337149226
"801",801,"Swauk Wind LLC",47.14162,-120.75448,4.25,11160.25
"802",802,"Junction Hilltop Wind Farm",42.0985,-94.26902,8,29300.578277177
"803",803,"Cumberland Rose",41.2271,-94.4349,1.6,6276.74711035125
"804",804,"Fontanelle",41.338889,-94.57,1.6,6005.7244422335
"805",805,"Greenfield",41.2907,-94.4852,1.6,6112.71574519125
"806",806,"Meadow Ridge",41.3901,-94.4463,1.6,6132.92328626725
"807",807,"Sky Volt",41.2905,-94.4885,1.6,6314.702562423
"808",808,"Wiota",41.3915,-94.8768,1.6,5967.17092451675
"809",809,"Delta Wind Farm",64.013889,-145.596667,0.19,NA
"810",810,"Palo Duro",36.421807143,-101.030295918,249.9,1044360.94736842
"811",811,"Prairie Breeze III",41.9950035,-97.9805995,35.8,146053.333333333
"812",814,"Javelina Wind Energy, LLC",27.333525159,-98.987754921,249.69,894036.270064816
"813",815,"South Plains II",34.20573978,-101.366604615,300.3,1049053.04364547
"814",816,"Cedar Bluff Wind, LLC",38.67130009,-99.734859459,198.69,814545.230769231
"815",817,"Los Vientos V Wind Power",26.398804545,-98.572421091,110,357159.009805468
"816",818,"Golden Hills Wind",37.7154275,-121.634788958,81.6,268339.186662093
"817",820,"Grant Wind, LLC",36.92296197,-97.675776667,151.8,541012
"818",821,"Carousel Wind Farm LLC",39.334,-102.173,149.6,559973.077940403
"819",822,"Golden West Power Partners LLC",38.935,-104.212,250,835206.658829351
"820",823,"Latigo Wind Park",37.894077037,-109.385012222,62.1,125312.784176885
"821",824,"Rattlesnake Den",31.723097966,-101.445578814,211.22,824439.200099447
"822",825,"Milo Wind Project LLC",33.9009372,-103.3638208,50,199415.615704065
"823",826,"Slate Creek Wind Project LLC",37.123072933,-97.2949208,150,614092.615384615
"824",827,"Briscoe Wind Farm",34.432267,-101.237233,149.85,411877.088703189
"825",828,"Green Pastures Wind II",33.645964,-99.532944,150,291664.818814929
"826",829,"Green Pastures Wind I",33.628222,-99.411169,150,480938.916291936
"827",830,"Campbell County Wind Farm",45.789324909,-100.275170727,93.5,378269.538461537
"828",831,"Sendero Wind Energy",27.180017436,-98.916541538,78,294246.441267295
"829",832,"Fowler Ridge IV Wind Farm LLC",40.620556,-87.378056,149.5,433919.999999999
"830",833,"Kay Wind, LLC",36.946122462,-97.175882538,299,1043579.73295231
"831",834,"Logans Gap Wind LLC",31.817493333,-98.694151379,200.1,656323.708854265
"832",835,"Oak Tree Energy",44.943140909,-97.746247273,20.35,74226.5
"833",836,"Pleasant Hill Wind Energy Project",33.738889,-101.485,19.8,100877.600000001
"834",837,"South Plains Wind Phase I",34.080556,-101.323611,200,736829.656501216
"835",838,"Mesquite Creek Wind",32.715958644,-101.747836441,211.22,711647.46831594
"836",839,"Anheuser-Busch #2",38.233611,-122.0925,1.6,NA
"837",840,"Taylor Farms",36.505,-121.451667,1,NA
"838",841,"City of Soledad Water Reclamation Facility",36.421111,-121.340278,1,NA
"839",842,"Golden Acorn Casino",32.702107,-116.354587,1,NA
"840",843,"Los Vientos Windpower III",26.39202847,-98.59041,200,592998.594190275
"841",844,"Seiling Wind II",36.148980508,-98.979547627,100.3,400640.639999999
"842",845,"Seiling Wind I",36.106943077,-98.993474872,198.9,807907.68
"843",846,"Mammoth Plains",35.978205385,-98.691778376,198.9,807246.72
"844",847,"Windthorst-2",33.501078571,-98.500387143,64.4,222927.063135284
"845",848,"Rising Tree Wind Farm III",35.060556,-118.243333,99,NA
"846",849,"Rising Tree Wind Farm II",35.088889,-118.206389,19.8,NA
"847",850,"Arbuckle Mountain Wind Farm LLC",34.386944,-97.136944,100,407194.285714286
"848",851,"Pleasant Valley Wind Farm",43.805,-92.769722,200,731825.915971355
"849",852,"Border Winds Wind Farm",48.964722,-99.613889,150,542762.257314518
"850",853,"Beethoven Wind",43.16,-98.08,79.55,302535.6
"851",854,"Fair Wind Power",39.324167,-79.388611,30,87446.5714285714
"852",855,"Cameron Wind 1 LLC",26.195278,-97.466111,165,493036.056596074
"853",856,"Marshall Wind Farm",39.701111,-96.360833,72,292600.5
"854",857,"Limon III Wind LLC",39.353333,-103.474167,200.6,787748.549200572
"855",858,"Carroll Area Wind Farm",41.94143,-94.8861,20,84032.073876585
"856",860,"Colbec's Corner, LLC",35.330137768,-101.100212143,200,818925.883072229
"857",861,"Shannon Wind",33.507631345,-98.372273277,202.3,649585.212515245
"858",862,"Hoopeston Wind LLC",40.399722,-87.799167,98,328404.774747563
"859",863,"Two Dot Wind Farm",46.449444,-110.087222,9.72,NA
"860",864,"Little Elk Wind Project LLC",35.197830541,-98.906654865,74,334802.76923077
"861",865,"Goodwell Wind Project LLC",36.5249276,-101.634655,200,851183.999999999
"862",866,"Breckinridge Wind Project LLC",36.447705088,-97.676081053,96.9,431755.058823529
"863",867,"Broken Bow Wind II, LLC",41.529365814,-99.560200698,76.97,336583.111111111
"864",868,"Fairfield Wind",47.723333,-111.965278,10,31828.9898905294
"865",869,"Thunder Spirit Wind, LLC",46.072213256,-102.599885814,107.5,404222.21649419
"866",870,"Anderson Wind II",33.013889,-103.865,10,40313.7482811075
"867",871,"Anderson Wind I",33.029444,-103.855833,5,16832.3850523885
"868",872,"Origin Wind",34.4459792,-97.269758267,150,589107.230769231
"869",873,"Beebe 1B",43.256944,-84.499722,50.4,146544
"870",874,"Fourmile Ridge",39.642255,-79.004081875,40,127981.5
"871",875,"Kingfisher Wind LLC",35.745475168,-97.846869195,298,1135863.73424
"872",876,"Balko Wind LLC",36.517911852,-100.843784568,299.7,1085096.5920728
"873",877,"Pilot Hill Wind Farm",41.003040194,-88.050795049,175.1,569584.94117647
"874",878,"Big Turtle Wind Farm, LLC",43.850833,-82.7825,20,NA
"875",879,"Wellsburg Wind Project",42.390062333,-92.9652715,140.8,502352.643607044
"876",880,"Macksburg  Wind Project",41.205647647,-94.137736275,119.6,375878.400000002
"877",881,"Lundgren  Wind Project",42.33789028,-94.184784206,251,930815.102357388
"878",883,"Highland Wind Project (IA)",43.058252944,-95.587617523,502,NA
"879",884,"Bison 4 Wind Energy Center",47.020505312,-101.630481562,204.8,772041.272678842
"880",885,"Keechi Wind",33.148541091,-98.164098727,110,411211.07314172
"881",886,"Lakeswind Power Partners",46.718056,-96.211944,48,168546.979191227
"882",887,"Red Horse 2",32.286111,-110.088056,30,63042.4557801875
"883",888,"Cross Winds Energy Park",43.610278,-83.485556,110.98,364234.559999999
"884",889,"Spinning Spur Wind III",35.301721237,-102.719662887,194,809392.88652525
"885",890,"Spinning Spur Wind II",35.307675172,-102.594965977,160.95,567014.487629032
"886",891,"TX Hereford Wind",34.765781923,-102.262981731,208,713532.34485321
"887",892,"Longhorn Wind",34.3091976,-101.242609,200,731225.177888204
"888",893,"Roosevelt County",33.92213616,-103.49789576,250,1078445.32197876
"889",894,"Spring Canyon Expansion Wind Energy Ctr",40.964167,-103.077222,59.5,224013.45976617
"890",895,"Marsh Hill Wind Farm",42.163889,-77.528889,16.2,NA
"891",896,"Buckeye Wind Energy Center",38.996665982,-99.450175536,200.48,784642.069341656
"892",897,"Miami Wind Energy Center",35.653763077,-100.538683974,288.6,1079088.15682097
"893",898,"Pattern Panhandle Wind 2 LLC",35.44323038,-101.385932911,181.7,767416.60711599
"894",899,"Pheasant Run Wind II",43.757778,-83.297778,74.8,243991.885714286
"895",900,"Osage Wind, LLC",36.706680119,-96.653464762,150.36,557138
"896",901,"Route 66 Wind Plant",35.186798533,-101.4602728,150,583499.173346977
"897",902,"Alexander Wind Farm LLC",38.431301429,-99.533191429,48.3,205295.076923077
"898",903,"Cape Cod Air Force Station - 6 SWS",41.7525,-70.538889,3.36,8571.51180508568
"899",904,"Courtenay Wind Farm",47.1903214,-98.6041454,200,806555.143065815
"900",905,"RP Wind",40.449444,-83.893333,3.4,8605.2972972973
"901",906,"Saddleback Ridge Wind Farm",44.593333,-70.381111,34.2,98359.5
"902",907,"Grandview Wind Farm, LLC",35.258379746,-101.193933051,211.22,847466.85536372
"903",908,"Tuscola Wind II LLC",43.526944,-83.566944,100.3,319501.68960007
"904",909,"Pheasant Run Wind LLC",43.757778,-83.297778,74.8,263436.324324324
"905",910,"Tucannon River Wind Farm",46.433371897,-118.046532759,266.8,813774
"906",911,"Huerfano River Wind",37.772222,-104.832222,9,NA
"907",912,"Buffalo Dunes Wind Project",37.637541037,-101.089845926,249.75,931904.647058822
"908",913,"Broadview Energy Prime 2 LLC",34.728056,-103.305,9.9,37658.3780266288
"909",914,"Broadview Energy Prime LLC",34.746944,-103.325,9.9,36848.62135332
"910",915,"Headwaters Wind Farm LLC",40.066667,-85.013333,200,658032.5
"911",916,"Pantex",35.322778,-101.5325,11.5,40406.5527272725
"912",917,"Alta Wind XI",35.087693333,-118.36274875,89.65,249334.270357711
"913",918,"Alta Wind X",35.06,-118.2,136.8,333918.149040613
"914",919,"Prairie Breeze",41.932180763,-98.11014178,200.6,833040.75
"915",920,"Goldthwaite Wind Energy Facility",31.388233372,-98.486700814,148.6,523860.86028734
"916",921,"Pattern Panhandle Wind LLC",35.41936822,-101.248626271,218.3,764375.994357568
"917",922,"Haviland Plastic Products",41.0197,-84.588,4.5,15008.4545454545
"918",923,"Echo Wind Park",43.8825,-83.161389,112,NA
"919",924,"Orangeville Wind Farm",42.744509483,-78.240434828,92.8,270154.378378378
"920",925,"Stephens Ranch Wind Energy LLC",32.945178571,-101.65747381,375.9,1220977.10674951
"921",926,"Eva Creek Wind",64.064858333,-148.902858333,24.6,72319.1020875902
"922",927,"Baffin Wind",27.171907228,-97.588241386,202,534815.788887646
"923",928,"Pinyon Pine II",35.026759,-118.223333,132,226132.179608134
"924",929,"Pinyon Pine I",35.043411,-118.211835,168,317082.346321227
"925",930,"Rising Tree Wind Farm",35.0775,-118.218333,99,NA
"926",931,"Waverly Wind Farm LLC",38.351761368,-95.591829474,190,731297.428571429
"927",932,"Oakfield Wind Project",46.058056,-68.147222,148,307883.2
"928",933,"Gunsight Mountain Wind Energy LLC",32.486374925,-101.448348657,120,469491.616921368
"929",934,"Odell Wind Farm",43.8516413,-94.9375689,200,887749.368421052
"930",935,"Los Vientos Windpower IV",26.5699362,-98.6862049,200,637567.159167397
"931",936,"Passadumkeag Windpark LLC",45.07,-68.21,42.9,127712
"932",943,"Ida Grove Wind",42.313736866,-95.416876045,301.06,NA
"933",944,"O'Brien Wind",43.199000288,-95.599563654,250.263,NA
"934",945,"Chopin Wind LLC",45.891563333,-118.471131667,10.2,NA
"935",946,"Greenfield Wind - MT",47.723,-111.963,25,NA
"936",947,"Horse Creek Wind Farm",33.3581094,-99.5414666,230,858867.802042449
"937",948,"Wake Wind Energy Center",33.8390618,-101.104930867,257.25,1055724.88330116
"938",949,"Pioneer Wind Park, LLC",42.694795217,-105.88238087,85.1,NA
"939",951,"Peak View Wind Farm",37.673332059,-104.506958235,60.86,NA
"940",952,"Brady Wind Energy Center",46.657176667,-102.753297356,149.73,NA
"941",953,"Electra Wind Farm",34.1122267,-99.0743788,230,942909.24564431
"942",954,"Mariah North",34.716081667,-102.710514479,230.4,755437.070953114
"943",956,"Javelina Wind Energy II, LLC",27.459439,-98.9177894,200,736096.103767837
"944",957,"Desert Wind Farm, LLC",36.316905385,-76.419510962,208,458738.571428571
"945",958,"Grande Prairie Wind Farm",42.6107083,-98.47025535,400,1605581.14285714
"946",960,"Bluestem",36.552153167,-100.5875545,198,752794.285714286
"947",963,"Cimarron Bend Wind Project I, LLC",37.3706834,-99.8876057,200,780408.923076923
"948",965,"Great Western Wind Energy, LLC",36.167257634,-99.590833871,225,831924.028648762
"949",966,"New Creek Wind",39.247561429,-79.116353265,102.5,283721.538461538
"950",967,"Drift Sand Wind Project LLC",34.831002963,-97.941155,108,468314.57142857
"951",968,"Hancock Wind Plant",44.761924706,-68.142797059,56.1,122933.983579035
"952",969,"Frontier Windpower",36.3591875,-97.235633281,200,660745.714285714
"953",970,"Hidalgo Wind Farm LLC",26.50041464,-98.41567672,250,850171.23993368
"954",971,"Jericho Rise Wind Farm LLC",44.883090811,-74.096571351,77.7,240571.384615385
"955",972,"Kelly Creek Wind Project",40.977730326,-88.192969891,184,689299.009167182
"956",973,"Kingman Wind",37.55617125,-98.270779833,204,865879.714285714
"957",975,"Ringer Hill Wind Farm, LLC",39.740111429,-79.192535,39.9,94032
"958",976,"Rush Springs Wind",34.700157667,-97.804812083,250,1023413.14285714
"959",983,"Grant Plains Wind, LLC",36.968339375,-97.674433437,147.2,504504
"960",984,"Salt Fork Wind Project, LLC",35.16003092,-100.946083908,174,714867.988521196
"961",985,"Sunflower Wind Project",46.828605962,-102.06277,104,467108.571428571
"962",986,"Tyler Bluff Wind Project, LLC",33.699264038,-97.3707275,125.58,377814.821051536
"963",989,"Old Settler Wind",34.026300952,-101.156212698,151.2,512730.38015734
"964",1561,"Bloom Wind",37.489902778,-99.955513148,178.2,664464
"965",1562,"Penascal I and II",27.09848107,-97.54260548,403.2,1088195.733006
"966",1565,"Elk City II",35.507448485,-99.832366667,100.8,429840.673193373
"967",1752,"Bethel Wind Farm LLC",34.574357,-102.46912475,276,1179179.07692308
"968",1753,"Oliver Wind III, LLC",46.95034013,-101.1653915,99.25,451485.055241184
"969",1755,"Deerfield Wind Energy, LLC",43.963172083,-82.883399306,149,455747.485545907
"970",1758,"Cimarron Bend Wind Project II, LLC",37.3655228,-100.008785,200,895172.4
"971",1759,"Cotton Plains Wind Farm",33.99024,-101.237329048,50.4,192687.495268131
"972",1760,"Durbin Creek Windfarm",44.352758,-117.321176,10,NA
"973",1761,"Lindahl Wind Project, LLC",48.526096,-102.9678624,150,581777.454545455
"974",1762,"Jett Creek Windfarm",44.425562,-117.268292,10,NA
"975",1769,"Broadview Energy JN, LLC",34.801042911,-103.042126456,181.7,592530.752601758
"976",1770,"Broadview Energy KW, LLC",34.75115871,-103.121668871,142.6,404057.625923792
"977",1771,"Prospector Windfarm",44.416972,-117.257406,10,NA
"978",1774,"Western Plains Wind Farm",37.864827869,-99.645937869,280.6,1104709.09090909
"979",2022,"Dermott Wind",32.89249,-100.98866,253,895636.649975724
"980",2090,"Prairie Breeze II",41.9398,-97.9229,73.39,306692.571428572
"981",3222,"Whirlpool Corporation - Marion Wind Farm",40.59114,-83.178713333,4.5,NA
"982",3223,"Sterling I Wind Farm",33.360950769,-103.277181538,29.9,113379.428571429
"983",3224,"Meadow Lake Wind Farm V LLC",40.7236908,-87.026704,100,314904
"984",3225,"Redbed Plains Wind Farm",35.276299375,-97.87380875,99.1,346754
"985",3227,"Quilt Block Wind Farm LLC",42.655677347,-90.251453878,98,372314.4
"986",3228,"Rocksprings",29.767658261,-100.772395652,149.1,NA
"987",3229,"Chapman Ranch Wind I",27.598875185,-97.534556667,243,NA
"988",3230,"Apple Blossom Wind Farm",43.814211379,-83.306647586,100.05,NA
"989",3231,"Canton Mountain Wind",44.51365375,-70.30358375,22.8,NA
"990",3232,"Cottonwood Wind Energy Center",40.2786495,-98.42183575,89.6,NA
"991",3233,"Rock Creek Wind Project",40.438221733,-95.241463067,300,NA
"992",3234,"Fluvanna",32.885554459,-101.115391622,155.4,607151.666053426
"993",3235,"Golden Hills North Wind Energy Center",37.769083,-121.6406965,46,NA
"994",3236,"Willow Springs",33.3413977,-99.6471314,250,809253.748605144
"995",3237,"Deerfield Wind LLC",42.865264667,-72.979337333,30,NA
"996",3238,"El Cabo Wind",34.721197535,-105.641759577,298.2,NA
"997",3239,"Tule Wind LLC",32.763187368,-116.297899825,131.1,NA
"998",3240,"Twin Buttes II Wind",37.774941111,-102.523593611,72.6,NA
"999",3241,"Seward Wind Farm",40.89519,-97.18748,1.7,NA
"1000",3242,"Bluff Point Wind Facility",40.3226,-84.9472,119.7,NA
"1001",3243,"Buckthorn Wind",32.366477586,-98.396852759,100.05,290637.738558854
"1002",3244,"Bruennings Breeze Wind Farm",26.522558553,-97.675135,228,NA
"1003",3245,"Radfords Run Wind Farm",40.000279281,-89.037002806,278,NA
"1004",3246,"Red Pine Wind Project",44.4747987,-96.1594352,200,NA
"1005",3247,"Rock Falls Wind Farm LLC",36.915468333,-97.476378,154.575,NA
"1006",3249,"Hog Creek Wind Project",40.789455667,-83.715044667,60,NA
"1007",3251,"Beaver Creek Wind",42.103944,-94.160391294,170,NA
"1008",3252,"Prairie Wind Farm",41.448646951,-92.689769146,164,NA
"1009",3253,"Whirlpool Corporation - Ottawa Wind Farm",41.00281,-84.03371,1.5,NA
"1010",3254,"Red Dirt Wind Project",36.047513895,-97.776198316,299.25,NA
"1011",3255,"Thunder Ranch Wind Project",36.572368417,-97.306301,297.4,NA
"1012",3256,"Bearkat",31.764998421,-101.593655088,196.65,NA
"1013",3257,"Big Timber Wind Farm",45.835719286,-109.652427143,25.06,NA
"1014",3258,"Town of Otis Wind Energy Project",42.22577,-73.02577,1.5,NA
